[
  {
    "id": 1,
    "name": "Metareciclagem",
    "whatsapp": false,
    "phone": {
      "ddi": "55",
      "ddd": "15",
      "number": "34173825"
    },
    "address": {
      "street": "Av. Armando Sales de Oliveira",
      "number": "762",
      "neighborhood": "Trujilo",
      "city": "Sorocaba",
      "state": "SP",
      "zip_code": "18060370",
      "lat": "-23.49231",
      "lng": "-47.47388"
    },
    "categories": ["Pilhas e Baterias", "Celulares e Tablets", "Eletrodomésticos de Pequeno Porte", "Eletrodomésticos de Grande Porte", "Equipamentos de Informática", "Computadores e Vídeos Games", "Carregadores", "Cabos e Fios", "Antenas"],
    "payment": false,
    "residential_collection": true
  },
  {
    "id": 2,
    "name": "Coreso",
    "whatsapp": false,
    "phone": {
      "ddi": "55",
      "ddd": "15",
      "number": "32276608"
    },
    "address": {
      "street": "R. Chile",
      "number": "401",
      "neighborhood": "Vila Barcelona",
      "city": "Sorocaba",
      "state": "SP",
      "zip_code": "18025280",
      "lat": "-23.51331",
      "lng": "-47.43692"
    },
    "categories": ["Pilhas e Baterias", "Celulares e Tablets", "Eletrodomésticos de Pequeno Porte", "Eletrodomésticos de Grande Porte", "Equipamentos de Informática", "Computadores e Vídeos Games", "Carregadores", "Cabos e Fios", "Antenas", "Lâmpadas"],
    "payment": false,
    "residential_collection": true
  },
  {
    "id": 3,
    "name": "Coreso",
    "whatsapp": false,
    "phone": {
      "ddi": "55",
      "ddd": "15",
      "number": "32276608"
    },
    "address": {
      "street": "R. José Henrique Dias",
      "number": "215",
      "neighborhood": "Vitória Régia",
      "city": "Sorocaba",
      "state": "SP",
      "zip_code": "18078395",
      "lat": "-23.42858",
      "lng": "-47.45544"
    },
    "categories": ["Pilhas e Baterias", "Celulares e Tablets", "Eletrodomésticos de Pequeno Porte", "Eletrodomésticos de Grande Porte", "Equipamentos de Informática", "Computadores e Vídeos Games", "Carregadores", "Cabos e Fios", "Antenas", "Lâmpadas"],
    "payment": false,
    "residential_collection": true
  },
  {
    "id": 4,
    "name": "Cooperativa de Col. Sel. Reviver",
    "whatsapp": false,
    "phone": {
      "ddi": "55",
      "ddd": "15",
      "number": "33261903"
    },
    "address": {
      "street": "R. Ourinhos",
      "number": "241",
      "neighborhood": "Jd. Leocadia",
      "city": "Sorocaba",
      "state": "SP",
      "zip_code": "18085460",
      "lat": "-23.47211",
      "lng": "-47.43923"
    },
    "categories": ["Pilhas e Baterias", "Celulares e Tablets", "Eletrodomésticos de Pequeno Porte", "Eletrodomésticos de Grande Porte", "Equipamentos de Informática", "Computadores e Vídeos Games", "Carregadores", "Cabos e Fios", "Antenas"],
    "payment": false,
    "residential_collection": true
  },
  {
    "id": 5,
    "name": "Resotech Ambiental",
    "whatsapp": true,
    "phone": {
      "ddi": "55",
      "ddd": "15",
      "number": "997990984"
    },
    "address": {
      "street": "R. Estanislau Camargo Sampaio",
      "number": "680",
      "neighborhood": "Jd. Luciana Maria",
      "city": "Sorocaba",
      "state": "SP",
      "zip_code": "18071325",
      "lat": "-23.46715",
      "lng": "-47.50880"
    },
    "categories": ["Celulares e Tablets", "Eletrodomésticos de Pequeno Porte", "Equipamentos de Informática", "Computadores e Vídeos Games", "Carregadores", "Cabos e Fios"],
    "payment": false,
    "residential_collection": true
  },
  {
    "id": 6,
    "name": "Império Sucatas",
    "whatsapp": true,
    "phone": {
      "ddi": "55",
      "ddd": "15",
      "number": "991953191"
    },
    "address": {
      "street": "R. Catalunha",
      "number": "125",
      "neighborhood": "Vila Hortência",
      "city": "Sorocaba",
      "state": "SP",
      "zip_code": "18020242",
      "lat": "-23.50824",
      "lng": "-47.44222"
    },
    "categories": ["Celulares e Tablets", "Eletrodomésticos de Pequeno Porte", "Eletrodomésticos de Grande Porte", "Equipamentos de Informática", "Computadores e Vídeos Games", "Carregadores", "Cabos e Fios", "Antenas"],
    "payment": true,
    "residential_collection": true
  },
  {
    "id": 7,
    "name": "Recicla Sorocaba",
    "whatsapp": true,
    "phone": {
      "ddi": "55",
      "ddd": "15",
      "number": "996995301"
    },
    "address": {
      "street": "Av. Ipanema",
      "number": "3345",
      "neighborhood": "Jd. Planalto",
      "city": "Sorocaba",
      "state": "SP",
      "zip_code": "18071801",
      "lat": "-23.46832",
      "lng": "-47.49347"
    },
    "categories": ["Celulares e Tablets", "Eletrodomésticos de Pequeno Porte", "Equipamentos de Informática", "Computadores e Vídeos Games", "Carregadores", "Cabos e Fios"],
    "payment": false,
    "residential_collection": true
  },
  {
    "id": 8,
    "name": "INFOBOM",
    "whatsapp": true,
    "phone": {
      "ddi": "55",
      "ddd": "15",
      "number": "988109371"
    },
    "address": {
      "street": "Av. Edward Fru Fru Marciano da Silva",
      "number": "1159",
      "neighborhood": "Jd. São Guilherme II",
      "city": "Sorocaba",
      "state": "SP",
      "zip_code": "18074621",
      "lat": "-23.44618",
      "lng": "-47.49176"
    },
    "categories": ["Equipamentos de Informática", "Computadores e Vídeos Games"],
    "payment": true,
    "residential_collection": true
  },
  {
    "id": 9,
    "name": "Ecoponto - Vila Helena",
    "whatsapp": false,
    "phone": {
      "ddi": "",
      "ddd": "",
      "number": "156"
    },
    "address": {
      "street": "R. Roque Sampaio",
      "number": "100",
      "neighborhood": "Vila Helena",
      "city": "Sorocaba",
      "state": "SP",
      "zip_code": "18066220",
      "lat": "-23.477486",
      "lng": "-47.493161"
    },
    "categories": ["Pilhas e Baterias", "Celulares e Tablets", "Eletrodomésticos de Pequeno Porte", "Eletrodomésticos de Grande Porte", "Equipamentos de Informática", "Computadores e Vídeos Games", "Carregadores", "Cabos e Fios", "Antenas", "Lâmpadas"],
    "payment": false,
    "residential_collection": false
  },
  {
    "id": 10,
    "name": "Ecoponto - Colorau",
    "whatsapp": true,
    "phone": {
      "ddi": "55",
      "ddd": "15",
      "number": "997159789"
    },
    "address": {
      "street": "R. Encarnação Rando Castellucci",
      "number": "70",
      "neighborhood": "Vila Colorau",
      "city": "Sorocaba",
      "state": "SP",
      "zip_code": "18020440",
      "lat": "-23.51322",
      "lng": "-47.43512"
    },
    "categories": ["Pilhas e Baterias", "Celulares e Tablets", "Eletrodomésticos de Pequeno Porte", "Eletrodomésticos de Grande Porte", "Equipamentos de Informática", "Computadores e Vídeos Games", "Carregadores", "Cabos e Fios", "Antenas", "Lâmpadas"],
    "payment": false,
    "residential_collection": false
  },
  {
    "id": 12,
    "name": "Ecoponto - Vila Hortência",
    "whatsapp": false,
    "phone": {
      "ddi": "",
      "ddd": "",
      "number": "156"
    },
    "address": {
      "street": "R. Lourenço Molinero",
      "number": "85",
      "neighborhood": "Vila Hortência",
      "city": "Sorocaba",
      "state": "SP",
      "zip_code": "18015063",
      "lat": "-23.502874",
      "lng": "-47.439862"
    },
    "categories": ["Pilhas e Baterias", "Celulares e Tablets", "Eletrodomésticos de Pequeno Porte", "Eletrodomésticos de Grande Porte", "Equipamentos de Informática", "Computadores e Vídeos Games", "Carregadores", "Cabos e Fios", "Antenas", "Lâmpadas"],
    "payment": false,
    "residential_collection": false
  },
  {
    "id": 13,
    "name": "Casas Bahia",
    "whatsapp": false,
    "phone": {
      "ddi": "55",
      "ddd": "15",
      "number": "33315200"
    },
    "address": {
      "street": "R. Dr. Álvaro Soares",
      "number": "48",
      "neighborhood": "Centro",
      "city": "Sorocaba",
      "state": "SP",
      "zip_code": "18010190",
      "lat": "-23.49834",
      "lng": "-47.45884"
    },
    "categories": ["Pilhas e Baterias", "Celulares e Tablets", "Eletrodomésticos de Pequeno Porte", "Eletrodomésticos de Grande Porte", "Equipamentos de Informática", "Computadores e Vídeos Games", "Carregadores", "Cabos e Fios"],
    "payment": false,
    "residential_collection": false
  },
  {
    "id": 14,
    "name": "Coop",
    "whatsapp": false,
    "phone": {
      "ddi": "55",
      "ddd": "15",
      "number": "32392911"
    },
    "address": {
      "street": "Av. Itavuvu",
      "number": "3799",
      "neighborhood": "Jd. Santa Cecilia",
      "city": "Sorocaba",
      "state": "SP",
      "zip_code": "18078005",
      "lat": "-23.45267",
      "lng": "-47.48289"
    },
    "categories": ["Pilhas e Baterias", "Celulares e Tablets", "Eletrodomésticos de Pequeno Porte", "Equipamentos de Informática"],
    "payment": false,
    "residential_collection": false
  },
  {
    "id": 15,
    "name": "TIM",
    "whatsapp": false,
    "phone": {
      "ddi": "55",
      "ddd": "15",
      "number": "40030941"
    },
    "address": {
      "street": "Praça Cel. Fernando Prestes",
      "number": "46",
      "neighborhood": "Centro",
      "city": "Sorocaba",
      "state": "SP",
      "zip_code": "18010160",
      "lat": "-23.49982",
      "lng": "-47.45758"
    },
    "categories": ["Pilhas e Baterias", "Celulares e Tablets", "Equipamentos de Informática"],
    "payment": false,
    "residential_collection": false
  },
  {
    "id": 17,
    "name": "Cooperativa de Votorantim - Coopervot",
    "whatsapp": true,
    "phone": {
      "ddi": "55",
      "ddd": "15",
      "number": "997967641"
    },
    "address": {
      "street": "Av. Jaziel de Azeredo Ribeiro",
      "number": "680",
      "neighborhood": "Jd. Antonio Cassillo",
      "city": "Votorantim",
      "state": "SP",
      "zip_code": "18112180",
      "lat": "-23.52723",
      "lng": "-47.43377"
    },
    "categories": ["Celulares e Tablets", "Eletrodomésticos de Pequeno Porte", "Eletrodomésticos de Grande Porte", "Equipamentos de Informática", "Computadores e Vídeos Games", "Lâmpadas", "Carregadores", "Cabos e Fios", "Antenas"],
    "payment": false,
    "residential_collection": true
  },
  {
    "id": 18,
    "name": "SEMA - Secretaria do Meio Ambiente",
    "whatsapp": false,
    "phone": {
      "ddi": "55",
      "ddd": "15",
      "number": "32192280"
    },
    "address": {
      "street": "R. Santa Maria",
      "number": "197",
      "neighborhood": "Vila Hortência",
      "city": "Sorocaba",
      "state": "SP",
      "zip_code": "18020216",
      "lat": "-23.50540",
      "lng": "-47.44882"
    },
    "categories": ["Celulares e Tablets", "Eletrodomésticos de Pequeno Porte", "Equipamentos de Informática", "Computadores e Vídeos Games", "Carregadores", "Cabos e Fios"],
    "payment": false,
    "residential_collection": false
  },
  {
    "id": 19,
    "name": "Fast Shop - Shopping Iguatemi Esplanada",
    "whatsapp": false,
    "phone": {
      "ddi": "55",
      "ddd": "15",
      "number": "34154058"
    },
    "address": {
      "street": "Av. Gisele Constantino",
      "number": "1850",
      "neighborhood": "Parque Bela Vista",
      "city": "Votorantim",
      "state": "SP",
      "zip_code": "18110650",
      "lat": "-23.53530",
      "lng": "-47.46230"
    },
    "categories": ["Celulares e Tablets", "Eletrodomésticos de Pequeno Porte", "Equipamentos de Informática", "Computadores e Vídeos Games", "Carregadores", "Cabos e Fios"],
    "payment": false,
    "residential_collection": false
  },
  {
    "id": 20,
    "name": "Carrefour Sorocaba - Norte",
    "whatsapp": false,
    "phone": {
      "ddi": "55",
      "ddd": "15",
      "number": "33329675"
    },
    "address": {
      "street": "Av. Brasil",
      "number": "376",
      "neighborhood": "Terra Vermelha",
      "city": "Sorocaba",
      "state": "SP",
      "zip_code": "18065100",
      "lat": "-23.48649",
      "lng": "-47.47119"
    },
    "categories": ["Pilhas e Baterias", "Celulares e Tablets", "Eletrodomésticos de Pequeno Porte", "Equipamentos de Informática", "Computadores e Vídeos Games", "Carregadores"],
    "payment": false,
    "residential_collection": false
  },
  {
    "id": 21,
    "name": "Dicico - Shopping Esplanada Sorocaba",
    "whatsapp": false,
    "phone": {
      "ddi": "",
      "ddd": "",
      "number": "08007634622"
    },
    "address": {
      "street": "Av. Gisele Constantino",
      "number": "401",
      "neighborhood": "Parque Bela Vista",
      "city": "Votoratim",
      "state": "SP",
      "zip_code": "18047900",
      "lat": "-23.53374",
      "lng": "-47.46309"
    },
    "categories": ["Pilhas e Baterias", "Celulares e Tablets", "Eletrodomésticos de Pequeno Porte", "Equipamentos de Informática", "Computadores e Vídeos Games", "Carregadores"],
    "payment": false,
    "residential_collection": false
  },
  {
    "id": 22,
    "name": "Facens",
    "whatsapp": false,
    "phone": {
      "ddi": "55",
      "ddd": "15",
      "number": "32381188"
    },
    "address": {
      "street": "Rodovia Senador José Ermírio de Moraes",
      "number": "1425",
      "neighborhood": "Alto da Boa Vista",
      "city": "Sorocaba",
      "state": "SP",
      "zip_code": "18087125",
      "lat": "-23.46985",
      "lng": "-47.42980"
    },
    "categories": ["Pilhas e Baterias", "Celulares e Tablets", "Eletrodomésticos de Pequeno Porte", "Equipamentos de Informática", "Carregadores"],
    "payment": false,
    "residential_collection": false
  },
  {
    "id": 23,
    "name": "Kalunga",
    "whatsapp": false,
    "phone": {
      "ddi": "55",
      "ddd": "11",
      "number": "33469966"
    },
    "address": {
      "street": "Av. Dom Aguirre",
      "number": "2121",
      "neighborhood": "Jd. Santa Rosália",
      "city": "Sorocaba",
      "state": "SP",
      "zip_code": "18090002",
      "lat": "-23.49220",
      "lng": "-47.44516"
    },
    "categories": ["Pilhas e Baterias", "Celulares e Tablets", "Eletrodomésticos de Pequeno Porte", "Equipamentos de Informática", "Computadores e Vídeos Games", "Carregadores"],
    "payment": false,
    "residential_collection": false
  },
  {
    "id": 24,
    "name": "Leroy Merlin",
    "whatsapp": false,
    "phone": {
      "ddi": "",
      "ddd": "",
      "number": "08000205376"
    },
    "address": {
      "street": "Rodovia Raposo Tavares",
      "number": "km 101",
      "neighborhood": "Parque Reserva Fazenda Imperial",
      "city": "Sorocaba",
      "state": "SP",
      "zip_code": "18052775",
      "lat": "-23.53314",
      "lng": "-47.47629"
    },
    "categories": ["Pilhas e Baterias", "Celulares e Tablets", "Eletrodomésticos de Pequeno Porte", "Equipamentos de Informática", "Computadores e Vídeos Games", "Carregadores"],
    "payment": false,
    "residential_collection": false
  },
  {
    "id": 25,
    "name": "Makro Zona Norte",
    "whatsapp": false,
    "phone": {
      "ddi": "55",
      "ddd": "15",
      "number": "33162720"
    },
    "address": {
      "street": "R. João Ribeiro de Barros",
      "number": "1411",
      "neighborhood": "Vila Odim Antao",
      "city": "Sorocaba",
      "state": "SP",
      "zip_code": "18090602",
      "lat": "-23.47065",
      "lng": "-47.45487"
    },
    "categories": ["Pilhas e Baterias", "Celulares e Tablets", "Eletrodomésticos de Pequeno Porte", "Eletrodomésticos de Grande Porte", "Equipamentos de Informática", "Computadores e Vídeos Games", "Carregadores"],
    "payment": false,
    "residential_collection": false
  },
  {
    "id": 26,
    "name": "Sam's Club",
    "whatsapp": false,
    "phone": {
      "ddi": "55",
      "ddd": "15",
      "number": "21013700"
    },
    "address": {
      "street": "Av. Antônio Carlos Comitre",
      "number": "80",
      "neighborhood": "Parque Campolim",
      "city": "Sorocaba",
      "state": "SP",
      "zip_code": "18047620",
      "lat": "-23.51731",
      "lng": "-47.46551"
    },
    "categories": ["Pilhas e Baterias", "Celulares e Tablets", "Eletrodomésticos de Pequeno Porte", "Equipamentos de Informática", "Computadores e Vídeos Games", "Carregadores"],
    "payment": false,
    "residential_collection": false
  },
  {
    "id": 27,
    "name": "Senac",
    "whatsapp": false,
    "phone": {
      "ddi": "55",
      "ddd": "15",
      "number": "34122500"
    },
    "address": {
      "street": "Av. Cel. Nogueira Padilha",
      "number": "2392",
      "neighborhood": "Vila Hortênia",
      "city": "Sorocaba",
      "state": "SP",
      "zip_code": "18020003",
      "lat": "-23.51277",
      "lng": "-47.43180"
    },
    "categories": ["Pilhas e Baterias", "Celulares e Tablets", "Eletrodomésticos de Pequeno Porte", "Eletrodomésticos de Grande Porte", "Equipamentos de Informática", "Computadores e Vídeos Games", "Carregadores", "Cabos e Fios", "Antenas", "Lâmpadas"],
    "payment": false,
    "residential_collection": false
  },
  {
    "id": 28,
    "name": "Sesc",
    "whatsapp": false,
    "phone": {
      "ddi": "55",
      "ddd": "15",
      "number": "33329933"
    },
    "address": {
      "street": "R. Barão de Piratininga",
      "number": "555",
      "neighborhood": "Jd. Faculdade",
      "city": "Sorocaba",
      "state": "SP",
      "zip_code": "18030160",
      "lat": "-23.51352",
      "lng": "-47.46063"
    },
    "categories": ["Pilhas e Baterias", "Celulares e Tablets", "Eletrodomésticos de Pequeno Porte", "Eletrodomésticos de Grande Porte", "Equipamentos de Informática", "Computadores e Vídeos Games", "Carregadores", "Cabos e Fios", "Antenas", "Lâmpadas"],
    "payment": false,
    "residential_collection": false
  }
]
